City,Lat,Long,City Id,Date,Country,Max Temp,Humidity,Cloudiness,Wind Speed
el wasta,29.00176812326345,31.99520080828492,360464,1505278594,EG,84.06,47,0,13.24
mar del plata,-53.01389239706997,-40.042687547360444,3430863,1505275200,AR,48.2,93,0,4.7
busselton,-45.980550644102046,87.98130841121495,2075265,1505278594,AU,59.58,100,0,6.64
high level,59.99545339732256,-117.95680727456428,5975004,1505275200,CA,44.6,93,40,2.95
dibaya,-6.021217479161405,23.016165698408688,292223,1505275200,AE,91.4,36,0,14.99
cape town,-60.00606213690326,1.9552917403384693,3369157,1505277000,ZA,55.4,71,0,4.7
hithadhoo,-4.9954533973225566,70.01566052033341,1282256,1505278595,MV,83.35,100,56,8.55
pemangkat,1.9992422328870927,107.98484465774186,1631637,1505278595,ID,82,89,88,1.72
yaan,31.994190452134376,98.95705986360191,6696918,1505277060,TW,81.46,74,75,18.34
odweyne,7.020207123010861,45.96994190452134,53372,1505278596,SO,78.66,36,8,4.63
sarangani,3.9861076029300326,123.96665824703207,1687186,1505278596,PH,83.8,100,48,8.43
bar-le-duc,48.98636019196767,5.012376862844152,3034911,1505277000,FR,56.05,77,90,20.8
parfino,57.98913867138166,31.95882798686537,512570,1505278596,RU,65.8,86,48,8.88
albany,-71.00126294518817,96.97726698661278,5106834,1505277900,US,53.15,93,90,1.95
beringovskiy,54.990149027532205,177.01591310937104,2126710,1505278597,RU,41.95,100,88,8.88
rikitea,-25.981055822177318,-124.00277847941399,4030556,1505278597,PF,68.68,100,68,12.12
cockburn town,25.00227330133872,-67.03889871179591,3576994,1505278499,TC,82.08,100,8,4.63
minot,47.98610760293003,-101.04369790351099,5690532,1505274960,US,62.46,39,90,5.82
port-gentil,-0.9911593836827481,5.981308411214953,2396518,1505278597,GA,75.79,97,80,9.89
santa cruz cabralia,-17.013892397069966,-36.035615054306646,3450288,1505275200,BR,73.4,78,40,9.17
imbituba,-29.018944177822682,-45.99343268502147,3461370,1505275200,BR,68,88,75,1.95
georgetown,-13.01667087648396,-17.978024753725688,3378644,1505275200,GY,73.4,100,40,2.24
ushuaia,-83.01944935589795,-25.980550644102046,3833367,1505275200,AR,33.8,74,40,11.41
faanui,-0.9785299318009598,-156.0358676433443,4034551,1505278589,PF,77.94,100,68,17.27
longyearbyen,89.00656731497853,26.962616822429908,2729907,1505274600,SJ,37.4,74,40,23.04
dafeng,33.980550644102046,122.03940388987118,1814435,1505278598,CN,81.1,89,92,3.96
taolanaro,-61.988128315231116,54.96387976761809,1078317,1505275200,MG,73.4,60,20,18.34
amderma,74.99671634251074,61.02273301338722,1544819,1505278599,RU,41.58,99,88,14.7
nikolskoye,46.0204597120485,178.00656731497853,541826,1505275200,RU,57.2,93,90,4.63
sentyabrskiy,42.97751957565042,154.99974741096236,6696686,1505278599,RU,47.26,65,68,12.57
vaini,-55.981813589290226,-177.01439757514524,4032243,1505275200,TO,73.4,73,75,4.7
cherskiy,77.99621116443546,162.02930032836574,2126199,1505278600,RU,36.81,88,76,9.22
coquimbo,-30.019449355897954,-74.01843899974742,3893629,1505275200,CL,51.8,71,0,3.36
yellowknife,72.99014902753221,-114.01086132861833,6185377,1505275200,CA,42.8,93,75,10.29
verkhoyansk,65.99949482192473,132.95680727456428,2013465,1505278600,RU,39.33,76,88,3.62
huilong,33.018186410709774,124.01086132861833,1806840,1505278600,CN,80.56,75,0,22.86
mataura,-88.01363980803234,-142.0035362465269,1263364,1505273400,IN,86,70,75,3.36
ostersund,63.98787572619349,16.045213437736802,2685750,1505276400,SE,48.2,93,75,11.41
illoqqortoormiut,88.02222783531195,-14.020207123010861,6545158,1505276400,IT,62.1,82,0,2.24
chokurdakh,81.0007577671129,151.9732255620106,2126123,1505278601,RU,36.1,80,80,11.68
maldonado,-36.01212427380651,-55.01616569840869,3441894,1505275200,UY,50,93,0,4.7
puerto ayora,-1.002273301338722,-91.95857539782773,3652764,1505278602,EC,66.69,100,76,13.35
hermanus,-79.98787572619348,4.031826218742107,3366880,1505278602,ZA,50.13,92,80,3.96
jabiru,-12.018186410709776,133.00656731497853,7839412,1505278602,AU,97.93,25,0,9.78
bredasdorp,-90.00227330133872,22.98686537004294,1015776,1505275200,ZA,51.8,87,88,4.7
mackay,-18.992674917908563,153.0366254104572,2159220,1505275200,AU,80.6,51,40,12.75
mount isa,-20.009345794392523,140.98838090426875,2065594,1505277000,AU,96.8,11,8,10.29
stepnogorsk,52.007325082091434,71.9653953018439,1537939,1505278603,KZ,50.22,56,0,4.52
zavetnoye,47.002273301338725,44.00606213690326,464179,1505278603,RU,72,51,0,12.46
bedford,45.00884061631725,-72.96084869916646,2656046,1505276400,GB,56.17,76,75,36.91
xining,33.011871684768884,99.98181358929023,1788852,1505278603,CN,63.64,63,36,1.72
jamestown,-30.97777216468805,-12.970952260671886,5122534,1505274960,US,53.92,77,1,3.18
doha,24.00176812326345,51.990149027532205,290030,1505275200,QA,91.4,79,0,4.7
burnie,-41.98029805506441,143.00580954786562,2173125,1505278604,AU,51.31,100,36,32.59
ampanihy,-25.020964890123768,43.96716342510735,1078553,1505278604,MG,79.3,37,0,4.52
prado,-17.02071230108613,-39.01793382167214,3452483,1505278604,BR,71.82,100,100,16.71
izamal,21.01843899974741,-88.97322556201061,3526662,1505274540,MX,77,94,90,2.84
sarapulka,56.98004546602677,61.024248547613034,1493044,1505275200,RU,37.4,93,90,6.71
saint-philippe,-26.007577671129074,59.018691588785046,935215,1505275200,RE,71.74,46,90,6.93
kizilskoye,53.00050517807527,59.00656731497853,493160,1505278605,RU,62.37,83,68,10.33
atuona,1.0186915887850467,-132.96286941146755,4020109,1505278605,PF,78.85,100,8,11.01
qaanaaq,86.98964384945694,-88.96387976761808,3831208,1505278606,GL,28.35,100,92,2.28
kungalv,58.007072493053805,11.983581712553676,2698739,1505276400,SE,52.75,93,40,10.29
port elizabeth,-47.0141449861076,27.974741096236425,964420,1505276100,ZA,59,93,75,17.22
carnarvon,-21.00404142460217,98.99545339732255,2074865,1505278606,AU,78.48,58,0,15.14
gizo,-7.020964890123769,157.97827734276333,2108857,1505278606,SB,83.61,100,64,15.82
baker city,43.99696893154837,-118.0176812326345,5712169,1505274960,US,66.72,56,20,5.82
akdepe,42.01566052033342,58.039151300833545,601551,1505275200,TM,62.58,34,0,18.34
antofagasta,-23.017176054559233,-76.0239959585754,3899539,1505275200,CL,55.4,76,75,10.29
kobayashi,31.992422328870926,130.97347815104825,1859175,1505275200,JP,81.46,74,75,4.7
stawell,-37.00656731497853,142.98964384945694,2148431,1505278607,AU,47.35,85,88,13.69
bluff,-70.01566052033341,162.03940388987118,2206939,1505278608,NZ,52.66,96,92,11.12
kaitangata,-53.00303106845163,173.9893912604193,2208248,1505278608,NZ,51.66,94,92,5.86
klaksvik,70.99797928769891,-1.0452134377368023,2618795,1505276400,FO,48.2,93,92,8.05
mahebourg,-50.00555695882799,81.0452134377368,934322,1505275200,MU,73.4,64,40,11.41
bargal,9.990654205607477,55.994948219247284,97270,1505278608,IQ,84.33,12,0,2.39
hilo,6.995705986360192,-149.9583228087901,5855927,1505274960,US,69.76,78,90,8.05
richards bay,-29.986107602930034,38.0,962367,1505278609,ZA,82.18,38,0,9.22
pevek,79.9866127810053,173.01667087648397,2122090,1505278609,RU,38.44,100,44,20.07
marzuq,23.988380904268755,14.974235918161153,379149,1505278609,SD,86.76,53,0,5.19
mayo,67.00101035615054,-140.9633745895428,4362001,1505278500,US,65.86,82,1,2.51
kodiak,46.99924223288709,-147.95630209648903,5866583,1505274780,US,55.4,76,90,13.87
grindavik,58.98004546602677,-26.988380904268755,3416888,1505275200,IS,40.87,93,0,5.82
ambilobe,-8.018691588785046,48.99191715079566,1082243,1505278610,MG,83.25,43,0,11.9
nanortalik,60.993685274059104,-41.96059611012882,3421765,1505278610,GL,34.3,92,0,3.96
zhumadian,33.0204597120485,113.96691083606972,1783873,1505278610,CN,82.45,65,80,8.43
uige,-7.018438999747411,14.965900479919172,2236568,1505278610,AO,64.71,94,68,2.95
aksu,40.99595857539783,79.0416771912099,1529660,1505278610,CN,71.19,69,0,2.84
kautokeino,68.00833543824199,21.994695630209648,779330,1505278611,NO,45.1,100,92,7.99
pisco,-20.997979287698914,-88.98206617832786,3932145,1505275200,PE,62.6,77,20,7.65
kapaa,36.988128315231116,-173.99368527405912,5848280,1505274960,US,83.21,62,75,8.05
lavrentiya,74.98130841121495,-167.0330891639303,4031637,1505278611,RU,39.87,100,44,7.99
luderitz,-36.01161909573125,1.9916645617580198,3355672,1505275200,NA,51.8,100,0,5.82
pangnirtung,69.01591310937106,-62.00909320535489,6096551,1505278611,CA,36.72,92,92,13.35
samusu,-12.005051780752716,-163.00833543824197,2045485,1505278612,CN,58.06,54,8,5.19
dongobesh,-3.9896438494569337,35.04294013639808,160172,1505278612,TZ,61.83,62,0,3.4
san quintin,21.004294013639807,-125.9823187673655,3984997,1505278612,MX,64.71,94,0,4.63
fairbanks,64.01919676686032,-146.9689315483708,5861897,1505275080,US,56.59,54,90,11.34
carhuamayo,-11.002020712301086,-75.95857539782773,3945466,1505278612,PE,36.55,100,56,1.61
cody,44.01439757514524,-108.98585501389239,5821593,1505274960,US,69.8,32,1,4.41
bad hofgastein,47.01566052033342,13.035867643344279,2782053,1505276400,AT,46.4,93,40,10.29
vega de alatorre,20.988380904268755,-94.99772669866128,3514843,1505278613,MX,66.79,95,0,1.61
tuktoyaktuk,75.01237686284415,-131.99065420560748,6170031,1505275200,CA,44.6,87,75,11.41
karaton,45.99242232887093,53.96034352109118,609537,1505278614,KZ,71.29,34,0,12.46
butaritari,15.99343268502147,174.99368527405912,2110227,1505278614,KI,85.86,97,0,17.05
mogadishu,1.0093457943925233,45.97701439757515,53654,1505278614,SO,78.85,97,68,17.94
yerbogachen,60.010608739580704,108.01465016418287,2012956,1505278614,RU,54.19,62,8,4.97
cabo san lucas,10.006819904016165,-125.03662541045719,3985710,1505274180,MX,82.4,74,5,4.7
nishihara,19.997979287698914,137.0346046981561,1855342,1505277000,JP,82.96,70,90,24.16
punta arenas,-64.99797928769891,-82.00580954786562,3874787,1505275200,CL,35.6,100,75,25.28
upernavik,82.00833543824199,-52.000252589037636,3418910,1505278615,GL,35.46,100,44,4.41
provideniya,48.99545339732256,-176.99772669866127,4031574,1505275200,RU,42.8,52,0,13.42
nakamura,31.019954533973227,133.96716342510734,1855891,1505278615,JP,81.1,100,44,3.4
pavlodar,53.01389239706997,77.0232381914625,1520240,1505277000,KZ,46.4,87,75,11.18
ipixuna,-6.009345794392523,-70.97272038393534,3665210,1505275200,BR,75.2,94,0,2.24
hobart,-70.99595857539782,148.97499368527406,2163355,1505277000,AU,55.4,58,75,13.87
anadyr,60.99065420560748,173.98484465774186,2127202,1505275200,RU,42.8,52,75,11.18
porto novo,12.999494821924728,-38.04420308158626,3374336,1505275200,CV,78.8,74,20,16.11
chuy,-61.98484465774185,-26.955039151300834,3443061,1505278616,UY,46.9,92,0,5.53
mizpe ramon,29.999494821924728,34.03612023238191,294166,1505278617,IL,77.58,54,0,3.62
caravelas,-19.982318767365495,-36.02778479413993,3466980,1505278617,BR,73.71,100,8,14.58
belushya guba,88.0007577671129,55.95781763071483,1487762,1505278617,RU,43.11,100,88,14.7
kabugao,17.980550644102046,121.02121747916141,1709886,1505278617,PH,81.27,82,76,4.74
dingle,50.01641828744633,-14.020964890123768,1714733,1505278618,PH,79.83,93,92,10.67
milingimbi,-10.003283657489265,135.00454660267744,2067089,1505278618,AU,84.25,77,8,12.46
tasiilaq,84.02096489012376,-34.95882798686537,3424607,1505274600,GL,37.4,69,0,8.05
dikson,72.98913867138167,74.0035362465269,1507390,1505278618,RU,40.15,99,88,17.83
barrow,76.01591310937106,-151.02980550644102,5880054,1505274780,US,42.8,93,90,14.99
bathsheba,20.999494821924728,-48.97726698661278,3374083,1505275200,BB,80.6,88,40,10.29
san luis,-32.00328365748926,-67.02854256125285,3837056,1505278619,AR,41.85,59,20,9.78
college,70.99873705481183,-149.0098509724678,5859699,1505275080,US,56.61,54,90,11.34
basco,20.97928769891387,122.98004546602678,1726449,1505278619,PH,85.15,100,24,11.79
seoul,39.02121747916141,129.0070724930538,1835848,1505277000,KR,78.87,36,0,11.41
port alfred,-72.02273301338722,48.96160646627936,964432,1505278619,ZA,64.08,96,56,11.12
saleaula,4.982318767365497,-170.03763576660774,1445310,1505277000,IN,86,74,75,2.24
touros,2.990149027532205,-30.020459712048496,3386213,1505278620,BR,77.31,81,88,15.93
zachagansk,50.977772164688055,52.02652184895175,608668,1505277000,KZ,62.6,45,0,11.18
quatre cocos,-15.989896438494569,67.97448850719879,1106643,1505275200,MU,73.4,64,40,11.41
katsuura,21.016418287446324,152.95983834301592,2112309,1505277000,JP,84.2,62,75,16.11
new norfolk,-56.99873705481182,138.95857539782773,2155415,1505277000,AU,55.4,58,75,13.87
itoman,19.998737054811823,129.9873705481182,1861280,1505277000,JP,82.94,70,90,24.16
ola,57.98686537004294,152.9760040414246,2122574,1505275200,RU,59,30,20,11.18
hasaki,26.99924223288709,151.0090932053549,2112802,1505277000,JP,84.2,54,20,9.17
severo-kurilsk,28.988380904268755,169.03409952008082,2121385,1505278621,RU,50.76,86,36,10.45
calama,-24.016418287446324,-67.96766860318262,3897347,1505275200,CL,48.2,31,0,6.93
awjilah,24.98989643849457,20.023490780500126,88533,1505278622,LY,77.76,53,0,9.55
macusani,-14.013892397069966,-69.99393786309675,3935624,1505278622,PE,41.13,90,20,1.95
tiksi,88.00934579439253,123.01515534225814,2015306,1505278420,RU,37.9,97,88,5.53
shenzhen,20.98863349330639,114.96590047991917,1795565,1505277000,CN,89.55,55,40,9.17
baoro,5.995958575397828,15.996211164435463,2389804,1505278622,CF,66.51,99,88,5.75
morondava,-21.00783026016671,40.04218236928517,1058381,1505278623,MG,74.97,89,56,5.41
kavieng,8.992422328870926,151.9653953018439,2094342,1505278623,PG,81.19,100,56,6.64
tumannyy,78.00378883556454,38.04142460217226,483379,1505278623,RU,43.11,91,64,11.9
san cristobal,-8.011619095731245,-87.95680727456428,3628473,1505275200,VE,75.2,88,40,16.11
tzucacab,19.998989643849455,-88.96362717858045,3514961,1505278624,MX,73.26,100,92,0.72
noyabrsk,62.99696893154837,75.97347815104824,1496503,1505278624,RU,42.66,80,80,12.46
ostrovnoy,83.01616569840868,41.959585753978274,556268,1505278624,RU,41.13,99,92,15.93
maloy,63.00126294518818,2.0315736297044706,3146487,1505276400,NO,48.97,87,75,10.29
kahului,33.00454660267744,-152.02374336953775,5847411,1505277780,US,80.85,83,75,3.36
boone,41.98206617832786,-93.97398332912351,4456703,1505276100,US,61.11,100,90,3.36
mentougou,39.98206617832786,115.97852993180096,1800657,1505277000,CN,82.4,58,44,4.47
aklavik,69.99848446577418,-134.95579691841374,5882953,1505275200,CA,48.2,66,75,6.93
kenai,62.014650164182875,-152.03839353372064,5866063,1505274960,US,52.72,93,90,3.36
avarua,-39.989391260419296,-165.0338469310432,4035715,1505275200,CK,78.8,78,20,4.7
lalpur,22.02071230108613,69.98737054811821,1265150,1505278625,IN,88.93,81,32,6.76
lumeje,-12.012882040919424,20.959080575903005,876123,1505278625,AO,70.93,67,0,4.63
haibowan,39.007830260166706,108.00833543824199,1257326,1505278626,IN,92.44,58,0,4.63
rio gallegos,-51.015913109371056,-69.01944935589795,3838859,1505275200,AR,33.8,80,0,3.36
shelburne,41.0035362465269,-64.03763576660774,6145890,1505277900,CA,55.33,93,1,2.39
vestmannaeyjar,58.00404142460217,-22.015407931295783,3412093,1505278626,IS,43.3,100,0,10.67
lorengau,1.0,145.03435210911846,2092164,1505278626,PG,79.11,100,88,4.41
babanusah,10.996211164435463,27.95781763071483,379102,1505278626,SD,82.62,79,8,5.97
hay river,59.0035362465269,-112.02601667087649,5972762,1505275200,CA,44.6,87,40,4.7
tura,65.01439757514524,99.95983834301592,1254046,1505278627,IN,84.51,88,32,2.95
codrington,24.98989643849457,-51.956049507451375,2171099,1505278627,AU,50.58,100,68,19.51
novomykolayivka,47.99040161656984,36.04243495832281,699413,1505277000,UA,69.8,83,0,6.71
yumen,37.01793382167214,94.99848446577418,1528998,1505278627,CN,72.81,38,12,4.07
erzin,47.019449355897954,95.95604950745138,296852,1505276400,TR,76.24,94,0,2.24
kongolo,-5.015660520333418,27.005809547865624,212360,1505278628,CD,73.44,88,8,3.18
ust-kuyga,69.99469563020965,134.9732255620106,2013921,1505278628,RU,35.29,77,44,4.18
pandamatenga,-18.982318767365495,25.029805506441022,933178,1505275200,BW,60.8,44,0,5.82
batagay,66.0,135.00606213690327,2027044,1505278628,RU,42.4,75,36,4.41
ambon,-6.012882040919424,126.96286941146754,1651531,1505277000,ID,84.2,74,40,4.7
ask,60.0204597120485,11.032583985855014,3162668,1505278452,NO,48.06,92,0,4.63
ilulissat,81.99090679464511,-44.957312452639556,3423146,1505274600,GL,33.8,47,56,3.36
jinchang,40.980550644102046,102.01111391765598,1805733,1505278629,CN,65.89,54,56,10.33
portland,-49.01540793129578,136.96716342510734,5746545,1505274960,US,66.16,42,75,8.05
buchanan,0.9853498358171255,-11.981055822177318,2278158,1505278629,LR,71.56,100,92,3.96
grand river south east,-22.99520080828492,80.97928769891386,934475,1505275200,MU,73.4,64,40,11.41
sawakin,21.018691588785046,37.02525890376358,367544,1505278630,SD,90.19,64,0,5.3
lebu,-30.995453397322557,-103.00479919171508,3883457,1505278630,CL,49.41,100,24,14.81
tamandare,-10.004294013639807,-30.977014397575147,3386931,1505278630,BR,73.08,94,92,12.01
nordfjordeid,61.994948219247284,5.9552917403384695,3144369,1505276400,NO,49.01,100,75,5.82
mount gambier,-47.011871684768884,131.97625663046225,2156643,1505278630,AU,46.99,97,88,8.88
merrill,45.98433947966658,-90.02980550644102,5262680,1505277300,US,54.66,100,1,3.18
vila,-17.98509724677949,166.0338469310432,7117100,1505277000,PT,62.6,93,90,1.95
victoria,-8.988380904268755,62.043950492548625,6174041,1505277300,CA,55.92,82,75,3.62
south venice,25.999494821924728,-83.95958575397827,4173593,1505277300,US,75.2,94,1,1.5
great yarmouth,54.003788835564535,2.992422328870927,2647984,1505276400,GB,55.4,93,36,26.4
thinadhoo,0.9944430411720131,70.97802475372569,1337610,1505278632,MV,82.54,100,64,9.22
kavaratti,14.020964890123768,64.04066683505935,1267390,1505278632,IN,80.01,100,80,3.74
gamba,-7.989643849456933,2.9659004799191715,2400547,1505278632,GA,73.54,87,92,4.41
hauterive,51.977772164688055,-69.0282899722152,3013748,1505277000,FR,58.06,62,75,12.75
laguna,-38.989391260419296,-35.98610760293003,5364271,1505277600,US,76.03,60,1,6.93
khatanga,85.9886334933064,105.98560242485476,2022572,1505278633,RU,46.71,79,64,15.59
hokitika,-41.98560242485476,168.97852993180095,2206894,1505278633,NZ,52.75,100,92,9.78
bozovici,45.01793382167214,21.994695630209648,683985,1505277000,RO,57.2,100,75,1.12
orlovskiy,51.01237686284415,115.00681990401617,514796,1505278633,RU,74.52,58,0,13.24
nizhniy kuranakh,61.007830260166706,123.97347815104824,2019135,1505278633,RU,59.94,63,0,3.4
ilhabela,-24.000505178075272,-44.99823187673655,3461425,1505278634,BR,67.77,100,64,5.64
isangel,-20.998737054811823,176.0106087395807,2136825,1505278634,VU,73,100,76,14.7
te anau,-44.99318009598383,159.99065420560748,2181625,1505278634,NZ,47.16,95,64,7.54
vaitupu,7.988886082344027,-178.04395049254862,7020913,1505275200,BO,68,77,0,2.24
namibe,-12.993180095983835,6.981813589290224,3347019,1505278634,AO,65.25,100,88,6.2
adrar,25.008588027279615,0.9815610002525891,2508813,1505275200,DZ,84.2,13,0,6.93
gulfport,30.005809547865624,-89.01414498610761,4428667,1505275080,US,64.29,72,1,6.93
luganville,-14.007325082091437,164.0141449861076,2136150,1505278635,VU,78.12,100,80,17.27
jiwani,24.0,60.979287698913865,1175712,1505278635,PK,83.25,79,8,3.51
bengkulu,-15.016418287446324,87.01515534225814,1649150,1505278635,ID,82.62,98,24,10.22
kamenka,69.00025258903763,44.9555443293761,553766,1505278636,RU,69.4,59,12,15.37
formoso do araguaia,-11.014144986107603,-52.01439757514524,3461724,1505278636,BR,71.19,33,0,12.46
calamar,1.0133872189946955,-73.00505178075271,3687972,1505275200,CO,80.6,94,90,3.36
airai,12.997726698661278,148.04294013639807,1270576,1505278636,IN,89.65,89,12,5.19
olinda,-8.97852993180096,-29.95630209648901,3393536,1505275200,BR,75.2,83,40,11.41
north bend,42.99545339732256,-127.01944935589795,5742974,1505276100,US,56.23,87,1,17.22
kamenskoye,62.996211164435465,166.04192978024753,580431,1505275200,RU,58.08,82,0,4.47
diffa,14.006062136903259,13.011366506693609,2445704,1505278637,NE,78.57,65,8,11.23
turinsk,58.01212427380651,64.01313462995707,1488933,1505278637,RU,47.88,69,8,4.18
thompson,58.008588027279615,-92.01667087648396,6165406,1505275200,CA,48.2,70,75,4.7
ponta do sol,32.01692346552159,-20.01363980803233,2264557,1505277000,PT,75.2,53,20,11.41
barvinkove,49.01919676686032,36.9795402879515,712794,1505278638,UA,77.22,58,0,13.35
sisimiut,65.01187168476888,-58.02980550644102,3419842,1505278638,GL,29.7,94,92,2.17
satitoa,-14.012376862844153,-168.03839353372064,639248,1505276400,FI,53.6,100,90,2.24
dasoguz,40.99545339732256,60.008588027279615,601734,1505275200,TM,62.33,41,0,18.34
esperance,-45.011871684768884,123.01161909573125,2071860,1505278638,AU,62.19,73,0,4.63
tautira,-15.002273301338722,-146.0333417529679,4033557,1505277000,PF,78.8,65,20,4.7
baykit,62.996211164435465,97.95958575397827,1510689,1505278639,RU,51.94,96,76,5.97
amahai,-3.993685274059106,129.03839353372064,1651591,1505278639,ID,77.58,100,88,2.73
caraquet,47.00277847941399,-65.00757767112907,6942803,1505275200,CA,51.8,93,5,5.97
veshkayma,53.9964637534731,47.03738317757009,473994,1505278639,RU,65.07,80,0,6.98
halmstad,56.98383430159131,13.006314725940895,2708365,1505276400,SE,54.41,87,75,14.99
dongying,38.0,118.97398332912351,1812101,1505278640,CN,85.95,55,32,4.74
kruisfontein,-71.9866127810053,28.03990906794645,986717,1505278640,ZA,60.66,97,100,12.8
ketchikan,46.00075776711291,-137.95705986360193,5554428,1505274960,US,54.81,71,1,6.93
sharjah,24.97777216468805,56.99823187673655,292672,1505275200,AE,91.87,38,0,14.99
diamantino,-12.999242232887093,-55.99570598636019,3464724,1505278640,BR,80.65,54,80,3.29
torbay,37.99115938368275,-49.02450113665067,6167817,1505275320,CA,51.8,100,90,4.7
grand-bourg,16.020964890123768,-61.029047739328114,3579250,1505277000,GP,82.4,83,20,10.29
bandarbeyla,8.994695630209648,50.015913109371056,64814,1505278641,SO,80.01,85,8,22.75
makakilo city,9.981813589290224,-165.03081586259157,5850554,1505277180,US,81.57,78,75,4.7
gorontalo,-0.008082849204344532,122.98812831523112,1643837,1505278642,ID,82.71,72,88,3.51
acajutla,9.9964637534731,-91.01566052033341,3587498,1505274600,SV,82.4,83,20,2.24
deggendorf,49.00429401363981,12.964384945693357,2938540,1505278642,DE,45.63,91,12,4.74
kirkwood,-33.01919676686032,25.021217479161404,4393739,1505277300,US,65.62,93,90,6.2
juybar,37.00656731497853,52.97474109623642,129933,1505275200,IR,78.8,78,40,2.24
westport,-40.996211164435465,170.9866127810053,4845585,1505277480,US,62.04,100,20,2.95
nushki,29.986612781005306,64.97650921949987,1168749,1505278643,PK,80.91,40,0,3.96
smithers,55.0141449861076,-126.97878252083859,6149996,1505275200,CA,48.2,70,20,9.17
srivardhan,17.98636019196767,72.96413235665572,1255619,1505278643,IN,84.43,97,12,3.85
ondjiva,-15.99520080828492,14.95882798686537,3346821,1505278643,AO,59.31,54,0,2.73
clyde river,67.97726698661278,-71.9760040414246,5924351,1505277360,CA,32,100,90,8.05
bubaque,6.005304369790351,-20.01010356150543,2374583,1505278644,GW,77.14,100,88,6.64
nobres,-15.016165698408688,-55.97751957565042,3456277,1505278644,BR,79.2,53,64,4.97
honiara,-10.983834301591312,158.95630209648903,2108502,1505275200,SB,77,94,75,8.05
narsaq,79.98080323313968,-64.97221520586007,3421719,1505274600,GL,37.4,74,0,6.93
mys shmidta,89.01641828744633,-171.97575145238696,692829,1505278644,UA,76.95,59,0,8.21
san rafael,-35.992927506946195,-66.9724677948977,3836669,1505278370,AR,35.56,74,0,3.18
chiang rai,19.982318767365495,99.02197524627431,1153669,1505275200,TH,84.2,79,40,2.24
ribeira brava,16.998484465774187,-24.005304369790352,2263905,1505277000,PT,75.2,53,20,11.41
adre,14.000505178075272,22.964384945693357,245669,1505278645,TD,78.75,62,0,8.43
castro,-43.00884061631725,-105.00303106845163,3466704,1505278645,BR,53.29,88,0,2.62
port keats,-12.985349835817125,127.03435210911846,2063039,1505278646,AU,89.01,61,0,6.64
geraldton,-27.990149027532205,116.96312200050518,2070998,1505277000,AU,75.2,27,0,13.87
fiche,9.987117959080576,38.98080323313968,337771,1505278646,ET,61.47,78,0,3.29
alta floresta,-10.000757767112907,-55.04016165698409,6316343,1505278646,BR,87.75,32,12,5.19
attawapiskat,57.9964637534731,-77.03915130083354,5989520,1505278646,CA,55.71,82,8,2.17
merauke,-6.9992422328870925,137.9583228087901,2082539,1505278504,ID,83.97,75,88,15.26
san patricio,16.01919676686032,-108.04066683505935,3985168,1505278647,MX,72.19,100,12,3.51
homer,60.005051780752716,-152.997221520586,5864145,1505274780,US,52.65,71,90,3.36
constitucion,12.989896438494569,-127.01566052033341,3893726,1505278647,CL,47.61,97,0,3.4
boddam,56.983329123516036,-1.00656731497853,2655288,1505276400,GB,50,93,75,6.93
cairns,-15.986107602930034,145.97575145238696,2172797,1505277000,AU,82.4,54,20,17.22
mandalgovi,45.97726698661278,105.98812831523112,2030065,1505278647,MN,72.36,55,80,8.55
salym,60.98711795908058,70.9992422328871,1493162,1505278648,RU,46.26,60,92,7.99
gravelbourg,48.99166456175802,-106.96792119222026,5965462,1505278648,CA,57.25,56,8,9.22
jumla,30.01793382167214,81.97448850719879,1283285,1505278648,NP,54.19,72,0,1.39
ngunguru,-34.01010356150543,176.96918413740843,2186111,1505278648,NZ,60.31,92,48,16.49
mecca,22.99696893154837,39.97676180853751,104515,1505275200,SA,87.8,48,0,3.51
dubovskoye,46.98080323313968,43.03005809547866,564593,1505278649,RU,74.16,52,0,13.35
winslow,36.002525890376354,-109.98257135640313,5321473,1505274960,US,75.2,36,1,9.17
karratha,-17.002020712301086,110.96994190452135,6620339,1505278649,AU,97.93,8,0,10.22
sangod,24.98863349330639,76.03334175296793,1257410,1505277000,IN,84.2,79,75,2.24
karauzyak,44.003788835564535,60.97196261682243,7530769,1505277000,PL,51.8,100,48,6.93
coihaique,-46.99090679464511,-77.97069967163425,3894426,1505275200,CL,46.94,71,75,12.75
grand gaube,-11.99040161656984,65.97347815104824,934479,1505275200,MU,73.4,64,40,11.41
telde,27.998484465774187,-15.044455670623895,2510542,1505277000,ES,69.8,73,20,8.05
pontal,-20.985349835817125,-48.03334175296792,3453171,1505275200,BR,69.8,46,0,8.05
portales,33.980550644102046,-103.96918413740843,5484874,1505275080,US,75.18,36,90,6.93
ribeira grande,40.018186410709774,-32.003788835564535,3372707,1505278651,PT,72.19,100,80,13.02
iqaluit,60.0,-73.00959838343016,5983720,1505275200,CA,39.2,86,90,5.82
varhaug,56.977772164688055,4.026774437989391,3132644,1505276400,NO,50,93,75,4.7
valparaiso,-32.00328365748926,-73.97499368527406,3868626,1505275200,CL,51.8,93,90,2.84
santa fe,20.991411972720385,-81.96918413740843,5490263,1505276100,US,67.93,32,90,4.7
kalmunai,5.980045466026774,85.01869158878505,1242110,1505278651,LK,78.21,93,88,13.02
srednekolymsk,67.00580954786562,153.0126294518818,2121025,1505278652,RU,35.82,71,88,7.65
shingu,28.016165698408688,136.98636019196766,1847947,1505275200,JP,84.2,62,75,10.29
slave lake,58.0176812326345,-113.9547865622632,6149374,1505276520,CA,50,76,40,2.24
kimbe,-4.01490275322051,149.01793382167213,2093967,1505278652,PG,79.39,100,64,2.06
kitale,0.9777721646880525,35.02626925991412,191220,1505278652,KE,60.12,92,44,3.18
kungurtug,48.985349835817125,96.97928769891386,1501377,1505278653,RU,60.12,39,56,10.33
nhulunbuy,-12.991411972720384,140.03788835564538,2064735,1505277000,AU,87.8,55,20,12.75
korla,36.01566052033342,86.02803738317758,1529376,1505278653,CN,75.87,43,20,4.63
sitka,51.980550644102046,-143.02349078050014,5557293,1505274960,US,52.18,76,75,5.82
nizhniy chir,48.01010356150543,43.007325082091434,520783,1505278653,RU,70.83,62,0,13.47
saint george,33.99949482192473,-52.96463753473099,5546220,1505274960,US,84.2,23,1,4.7
lazaro cardenas,6.012376862844152,-109.01111391765598,4026082,1505278654,MX,77.85,100,64,3.06
ambulu,-10.012629451881788,112.98055064410205,8185303,1505278654,ID,79.93,83,12,7.65
lata,-12.011871684768881,166.98913867138165,2738381,1505275200,PT,57.2,93,90,5.82
mezen,70.00909320535489,46.98484465774185,527321,1505278655,RU,41.22,99,100,7.43
margate,-36.98964384945693,38.037888355645364,2643044,1505276400,GB,59,58,40,28.86
saskylakh,71.0106087395807,116.0,2017155,1505278655,RU,39.7,100,8,5.19
bambous virieux,-27.014650164182875,74.98686537004293,1106677,1505275200,MU,73.4,64,40,11.41
tianpeng,32.01389239706997,103.01465016418287,1792916,1505275200,CN,78.8,69,40,2.24
tabiauea,-0.006567314978529932,169.96362717858045,1696899,1505278655,PH,85.15,82,36,2.73
jinchengjiang,24.98863349330639,107.01742864359687,1808759,1505278656,CN,80.56,84,12,3.74
oeiras,-6.987623137155848,-42.03763576660773,3393764,1505278656,BR,76.15,57,0,16.71
doctor pedro p. pena,-23.992674917908563,-62.0444556706239,3437056,1505275200,PY,68,77,75,9.17
padang,-7.984844657741854,87.04369790351099,1633419,1505278656,ID,80.82,100,24,6.76
fort nelson,60.016670876483964,-125.01667087648396,5955902,1505276220,CA,48.2,87,75,3.36
cam ranh,10.984086890628946,113.01111391765598,1586350,1505278466,VN,84.06,91,32,2.17
belaya gora,67.01616569840868,147.01970194493558,2126785,1505278657,RU,38.25,80,76,8.1
bolshegrivskoye,52.98433947966658,74.99014902753221,1508138,1505278657,RU,47.07,76,64,7.54
teneguiban,11.998484465774185,118.98686537004293,1681820,1505278657,PH,82.54,100,88,26.89
juan lacaze,-35.001010356150545,-57.04344531447335,3442206,1505278657,UY,47.52,89,0,8.21
udachnyy,66.9886334933064,116.01591310937106,2014624,1505278658,RU,42.31,77,8,3.62
juneau,58.00075776711291,-135.04369790351097,5554072,1505274960,US,51.8,93,90,4.7
peruibe,-26.01742864359687,-45.98206617832786,3454061,1505278658,BR,69.4,100,32,8.99
jupiter,26.99772669866128,-79.96691083606972,4160610,1505276100,US,79.3,100,1,4.7
khandyga,64.0070724930538,136.99191715079564,2022773,1505278658,RU,54.45,69,8,3.06
saint-georges,8.004041424602173,-45.00909320535489,6138282,1505278658,CA,50.5,86,0,2.39
punta alta,-40.01288204091942,-60.97499368527406,3839982,1505278659,AR,55.08,78,0,20.74
jiangyou,33.01086132861834,102.9886334933064,1885823,1505278659,CN,74.8,74,92,2.17
saint-pierre,35.99696893154837,-53.97019449355898,935214,1505275200,RE,71.85,46,90,6.93
sapa,3.97852993180096,121.00429401363981,1687343,1505278659,PH,81.91,100,64,14.03
roald,70.02172265723668,1.9734781510482444,3141667,1505276400,NO,50.86,82,75,5.82
rosarito,31.998989643849455,-117.96943672644608,3988392,1505277300,MX,71.02,83,40,5.82
tarko-sale,64.00934579439253,78.98610760293003,1490085,1505278660,RU,41.95,83,80,11.34
koshurnikovo,54.00681990401617,93.99621116443546,1502389,1505278660,RU,45.36,91,92,7.76
urumqi,42.014650164182875,90.01540793129578,1529102,1505277000,CN,59,44,0,4.47
surt,29.97777216468805,17.993180095983835,2210554,1505278660,LY,77.41,94,0,7.65
barentsburg,83.97802475372569,9.974235918161153,2952767,1505276400,DE,52.16,100,75,16.11
oktyabrskoye,62.01843899974741,66.95958575397827,515805,1505278661,RU,76.32,47,0,3.18
sur,22.994190452134376,60.007830260166706,286245,1505278661,OM,87.4,84,0,6.42
bethel,52.98358171255367,-164.98358171255367,5282297,1505277480,US,59.67,100,20,2.95
ouango,3.9876231371558473,23.042687547360444,236844,1505278661,CF,71.37,100,92,2.62
yelan,50.99115938368275,43.975246274311694,468063,1505278662,RU,71.29,47,8,14.03
poum,-16.985855013892397,164.00404142460218,2138555,1505278662,NC,73.26,100,44,10.89
tombouctou,16.005051780752716,-1.9742359181611517,2449067,1505278662,ML,78.31,67,0,6.08
kiunga,-6.01490275322051,138.02374336953775,2093846,1505278662,PG,83.8,80,56,1.83
stepnyak,53.00454660267744,70.96236423339226,1518768,1505278662,KZ,49.24,57,0,6.31
kirakira,-12.982823945440767,160.9886334933064,2178753,1505278663,SB,82.54,100,56,21.3
meleuz,52.98711795908058,56.00909320535489,527717,1505278663,RU,63.1,84,88,4.97
shiyan,32.99949482192473,109.97878252083859,1794903,1505278408,CN,76.86,61,0,5.3
sembe,0.9929275069461986,13.956049507451377,2255304,1505278663,CG,68.14,99,92,2.84
muros,42.99115938368275,-13.970952260671886,3115824,1505277000,ES,60.8,100,75,1.12
sapele,5.982066178327861,5.994190452134378,2323675,1505278663,NG,74.8,99,92,4.07
sao filipe,10.997221520586006,-36.96615306895681,3374210,1505278664,CV,79.47,100,8,16.49
aykhal,64.9866127810053,109.96185905531699,2027296,1505278664,RU,43.38,81,12,6.42
port lincoln,-47.98686537004294,129.04218236928517,2063036,1505278664,AU,55.08,90,88,25.66
okahandja,-21.997979287698914,17.0346046981561,3354898,1505275200,NA,62.6,20,0,5.82
mandapam,8.981055822177318,79.00126294518817,1263900,1505278664,IN,80.1,100,80,27.78
banda aceh,3.995453397322556,91.00833543824199,1215502,1505278384,ID,85.69,76,44,3.85
saint anthony,57.015913109371056,-55.997726698661275,5044290,1505278380,US,68.22,77,1,4.7
soe,-11.984592068704218,126.04243495832281,1626703,1505278665,ID,90.72,32,8,3.4
yulara,-25.981813589290226,126.01389239706997,6355222,1505275200,AU,71.6,28,0,14.99
paamiut,59.006314725940896,-55.02677443798939,3421193,1505278665,GL,39.51,95,44,8.32
komsomolskiy,67.02222783531195,173.95453397322555,1513491,1505275200,UZ,72.88,37,0,6.93
east london,-39.99696893154837,34.03157362970447,1006984,1505277420,ZA,66.2,93,90,6.93
sibu,3.995453397322556,110.97549886334933,1735902,1505275200,MY,86,66,75,6.93
ende,-9.990149027532205,121.99772669866128,1644932,1505278666,ID,79.66,100,0,7.43
port blair,11.982571356403133,88.03207880777974,1259385,1505278666,IN,83.25,100,32,6.64
goure,15.99520080828492,11.012629451881788,2444219,1505278666,NE,76.6,67,0,11.9
griffin,33.021470068199044,-84.00985097246779,4198322,1505277300,US,61.12,88,40,4.7
vestbygda,55.98029805506441,5.041424602172266,3132051,1505278421,NO,53.46,100,92,5.75
warqla,31.993937863096743,4.996968931548371,1283742,1505278667,NP,79.56,85,68,2.17
bogalusa,31.002525890376358,-89.98358171255367,4317412,1505277300,US,62.1,87,40,2.28
ancud,-39.98004546602677,-105.00606213690325,3899695,1505278667,CL,46.99,97,92,8.1
leningradskiy,83.01212427380652,179.0318262187421,2123814,1505278668,RU,36.63,99,88,16.04
kuche,39.98711795908058,83.97575145238697,337853,1505278668,ET,65.61,100,68,2.62
terrak,65.00555695882798,12.00656731497853,3134658,1505276400,NO,57.2,76,0,12.75
vanavara,60.02121747916141,101.9886334933064,2013727,1505278668,RU,58.06,68,12,6.64
tiznit,25.010861328618336,-10.021722657236676,2527087,1505278668,MA,57.25,75,0,2.39
manokwari,-1.9863601919676686,134.03561505430665,1636308,1505278668,ID,81.55,100,36,9.66
filadelfia,-22.003283657489266,-59.975246274311694,3867291,1505278669,PY,68.41,68,20,8.55
novyy urengoy,67.98610760293003,75.9547865622632,1496511,1505278669,RU,42.21,100,56,10.67
karaul,68.02045971204849,84.03864612275827,543737,1505278669,RU,55.71,99,64,8.55
pousat,12.996211164435463,104.03864612275827,658225,1505276400,FI,55.4,100,75,5.82
naftah,33.993685274059104,7.016923465521597,588409,1505276400,EE,53.6,100,20,3.36
moree,-29.00176812326345,147.03561505430665,2156927,1505278670,AU,79.83,42,100,13.91
lompoc,27.01363980803233,-124.97726698661278,5367788,1505277300,US,64.72,88,90,4.7
kandrian,-6.983581712553675,150.98004546602678,2094746,1505278670,PG,78.66,91,100,5.97
pahrump,38.001010356150545,-116.03637282141955,5509851,1505275080,US,87.98,20,1,14.99
camocim,0.9775195756504168,-41.010608739580704,3403687,1505278670,BR,77.05,76,0,13.8
kulevcha,46.00454660267744,30.035362465269007,705442,1505278671,UA,71.37,70,0,6.98
arraial do cabo,-36.98964384945693,-32.018691588785046,3471451,1505278465,BR,69.57,91,8,21.3
pacific grove,31.018944177822682,-128.02980550644102,5380437,1505277300,US,65.3,82,40,6.93
tungkang,21.018944177822682,118.9709522606719,1689396,1505275200,PH,87.39,66,40,9.17
okhotsk,60.99924223288709,144.0098509724678,2122605,1505278671,RU,56.52,89,0,5.53
marsa matruh,27.003536246526902,26.016923465521597,352733,1505275200,EG,71.6,88,0,5.82
naze,25.01490275322051,132.01111391765596,1855540,1505275200,JP,87.8,74,75,18.34
waipawa,-45.9964637534731,177.0113665066936,2206874,1505277000,NZ,57.2,71,24,17.22
nuuk,62.001010356150545,-55.00202071230109,3421319,1505274600,GL,39.2,69,44,3.4
norman wells,83.99090679464511,-117.0070724930538,6089245,1505275200,CA,42.8,87,40,5.82
ndele,8.001010356150543,20.042434958322808,237379,1505278672,CF,70.56,98,64,9.1
rio grande,-34.97878252083859,-48.002525890376354,3451138,1505278673,BR,56.89,100,92,11.23
conde,-12.987117959080576,-35.992674917908566,3385077,1505275200,BR,73.4,100,75,4.7
nuevo progreso,24.02071230108613,-95.02803738317758,3522526,1505278673,MX,77.58,100,0,7.99
fairlie,-43.97802475372569,171.03713058853245,2649738,1505276400,GB,49.24,93,76,4.7
taksimo,57.01086132861834,115.02955291740338,2015701,1505278674,RU,51.31,70,0,2.51
plettenberg bay,-36.02121747916141,23.97196261682243,964712,1505278674,ZA,59.94,100,76,12.24
esmeralda,22.000505178075272,-78.02727961606466,3559318,1505274600,CU,75.2,100,40,1.12
gurgan,38.98383430159131,52.02020712301086,1270642,1505277000,IN,91.4,63,0,4.7
tazovskiy,68.00959838343016,80.96842637029553,1489853,1505278674,RU,41.58,95,68,7.99
kandava,57.01288204091942,22.959080575903005,459031,1505278675,LV,56.35,96,44,8.77
lewiston,45.98838090426875,-116.96943672644608,4969398,1505274960,US,60.78,67,1,3.36
vao,-26.003283657489266,172.02576408183884,2137773,1505278675,NC,70.02,100,0,12.68
vagur,61.01641828744633,-5.0166708764839605,2610806,1505278675,FO,50.5,100,68,13.02
puerto cabello,10.992422328870926,-67.96489012376863,3629706,1505278675,VE,70.83,98,88,2.39
yafran,31.984592068704217,12.968426370295528,2208791,1505278676,LY,56.97,89,0,3.4
bonavista,51.98307653447841,-45.97499368527406,5905393,1505278676,CA,55.62,100,92,5.75
kunming,25.005556958827988,103.01869158878505,1804651,1505275200,CN,71.6,64,40,11.18
taltal,-24.979792876989137,-77.98762313715585,3870243,1505278676,CL,43.65,98,44,4.41
la macarena,2.00656731497853,-74.01111391765598,3827693,1505278676,CO,71.1,97,44,1.61
luau,-9.97852993180096,22.022480424349585,876177,1505278677,AO,71.82,71,0,3.18
zenzeli,46.00176812326345,46.96387976761809,463655,1505278677,RU,79.39,45,0,12.68
le vauclin,14.978024753725688,-59.97827734276333,3570392,1505277000,MQ,78.8,94,40,2.24
saint-joseph,-25.991917150795654,53.972972972972975,6690296,1505275200,RE,71.8,46,90,6.93
los llanos de aridane,27.98812831523112,-20.025006314725943,2514651,1505277000,ES,71.6,68,56,8.05
gat,26.007577671129074,5.011619095731246,293842,1505276400,IL,75.2,57,40,4.7
nome,69.98181358929023,-162.96564789088154,5870133,1505274780,US,46.4,100,90,3.36
astoria,45.988886082344024,-123.98358171255367,5711847,1505274900,US,59,77,40,11.41
nizhneyansk,79.00101035615054,140.00681990401617,521118,1505275200,RU,53.6,93,75,6.71
cidreira,-59.005809547865624,-18.975246274311694,3466165,1505278678,BR,63.19,99,92,10.22
tungor,52.97979287698914,143.03561505430665,2120400,1505278678,RU,58.06,80,88,7.2
kidal,18.012882040919425,4.014650164182875,2455290,1505278501,ML,74.52,58,0,3.74
betlitsa,53.981308411214954,33.98307653447841,576626,1505278679,RU,67.15,77,20,15.26
itarema,1.9843394796665825,-36.98913867138166,3393692,1505278679,BR,77.22,80,0,13.8
ivankiv,51.01035615054307,30.00656731497853,707489,1505277000,UA,62.6,100,90,8.95
east wenatchee,46.98206617832786,-120.01818641070977,5793271,1505274900,US,74.1,28,1,9.17
yenagoa,2.0136398080323312,4.977266986612781,2318123,1505278680,NG,73.44,99,92,4.74
zhicheng,30.990654205607477,120.01086132861833,1784554,1505278680,CN,76.69,89,32,4.63
lolua,-4.987623137155848,173.967416014145,658225,1505276400,FI,55.4,100,75,5.82
balvi,56.98156100025259,27.01439757514524,461163,1505278680,LV,57.06,99,92,15.14
ferme-neuve,46.992927506946195,-75.02147006819904,5952330,1505278680,CA,50.5,90,0,2.73
tuljapur,18.011113917655972,76.04420308158626,1254111,1505278680,IN,84.51,86,8,8.66
nikolayevsk-na-amure,52.98080323313968,141.03561505430665,2122850,1505278681,RU,57.06,90,0,6.98
odienne,9.999747410962364,-7.998737054811821,2283016,1505275200,CI,69.8,100,40,6.98
tessalit,22.005051780752716,1.0434453144733518,2449893,1505278681,ML,72.45,43,0,2.73
concepcion,-23.994695630209648,-57.98989643849457,3893894,1505275200,CL,46.4,93,0,1.12
rzeszow,50.02096489012377,22.023743369537762,759734,1505277000,PL,51.8,100,64,6.93
ballina,55.01566052033342,-10.043192725435716,2177069,1505278682,AU,77.58,72,0,11.01
cervo,46.012629451881786,-7.95705986360192,3125287,1505278682,ES,67.15,98,24,16.49
cayenne,17.983076534478403,-43.01010356150543,3382160,1505277000,GF,77,94,0,8.1
ponta delgada,32.005809547865624,-27.030058095478655,3372783,1505277000,PT,68,77,20,6.93
talnakh,73.97726698661278,89.04496084869916,1490256,1505278683,RU,45.81,84,88,10.45
saldanha,-41.98787572619349,-0.008588027279616064,3361934,1505275200,ZA,51.8,76,92,4.97
burica,5.9833291235160395,-86.02424854761303,2268728,1505277000,PT,63.63,88,0,12.75
hurghada,28.01363980803233,35.031826218742104,361291,1505275200,EG,86,17,0,9.17
victor harbor,-38.999747410962364,137.02652184895175,2059470,1505277000,AU,55.4,54,40,23.04
yamada,38.98686537004294,145.02904773932812,2110560,1505278684,JP,71.82,82,48,5.75
meulaboh,-0.9916645617580198,91.01919676686032,1214488,1505278684,ID,84.43,96,32,6.64
ca mau,7.994948219247284,104.9724677948977,1586443,1505278684,VN,91.9,66,8,13.24
petropavlovsk-kamchatskiy,52.982571356403135,161.01970194493558,2122104,1505275200,RU,57.2,54,44,17.9
williams lake,52.016670876483964,-122.98737054811821,6182212,1505275200,CA,50,79,40,9.17
zhezkazgan,46.98029805506441,67.00454660267745,1516589,1505278685,KZ,53.82,50,88,13.24
tadine,-21.011113917655972,168.97903510987624,2138285,1505278685,NC,71.82,96,8,14.25
yar-sale,74.02071230108614,72.96994190452135,1486321,1505278685,RU,41.31,100,56,8.77
tateyama,32.01288204091942,140.98231876736548,1850523,1505277000,JP,83.19,62,75,16.11
manado,2.0060621369032585,124.03713058853246,1636544,1505277000,ID,87.8,66,40,6.93
sikandarpur,26.01793382167214,84.00454660267745,1256328,1505278685,IN,87.85,87,12,6.2
lagoa,49.01793382167214,-32.9555443293761,3372964,1505278686,PT,71.73,100,44,11.34
mapiri,-15.009850972467795,-68.00025258903763,3910758,1505278686,BO,59.76,97,64,0.6
lauria,39.99595857539783,15.981561000252588,3175034,1505278686,IT,61.39,100,92,1.83
gumdag,38.99469563020965,54.9795402879515,161943,1505278686,TM,78.12,60,0,10
barguzin,52.97878252083859,109.9830765344784,2027109,1505278686,RU,66.6,38,24,2.62
wenling,26.994695630209648,123.00732508209144,1791464,1505278687,CN,83.35,84,0,21.74
dhidhdhoo,6.993180095983834,71.99444304117202,1337612,1505278687,MV,77.05,100,92,21.85
omsukchan,65.00454660267745,156.9633745895428,2122493,1505278687,RU,32.05,59,76,11.01
bella vista,7.98509724677949,-79.97650921949987,4101114,1505276100,US,60.04,72,75,3.36
whitehorse,60.97726698661278,-130.97979287698914,6180550,1505275200,CA,50,61,20,8.05
ust-kamchatsk,57.009850972467795,162.0267744379894,2115627,1505278688,RU,51.57,68,92,11.01
port-cartier,55.00126294518818,-69.00479919171508,6111696,1505275200,CA,46.4,100,40,2.39
aswan,22.985349835817125,28.980045466026773,359792,1505275200,EG,93.2,24,0,6.93
hudson bay,53.021470068199044,-101.9717100277848,5978133,1505278688,CA,56.89,41,0,5.19
boa vista,0.9868653700429402,-61.00075776711291,3664980,1505278689,BR,76.41,94,20,3.96
zhitikara,51.99393786309674,61.03334175296792,1516601,1505278689,KZ,63.72,86,12,9.22
stranraer,55.00202071230109,-5.044203081586259,2636719,1505278689,GB,49.41,100,92,13.58
bejar,40.02020712301086,-6.038898711795908,3128382,1505278689,ES,50.67,80,0,2.06
braganca,-1.0078302601667088,-46.99520080828492,3405006,1505278689,BR,73.9,93,0,5.19
lashio,23.009850972467795,98.98509724677949,1314759,1505278690,MM,77.76,77,80,2.62
mullaitivu,9.998989643849457,81.03940388987118,7671049,1505278690,LK,85.15,83,68,13.02
achit,57.007072493053805,57.987370548118214,584308,1505278690,RU,45.19,100,80,4.41
alofi,-19.005809547865624,-171.04243495832281,4036284,1505275200,NU,80.6,74,56,5.82
chai badan,14.990654205607477,101.00606213690325,1611424,1505278690,TH,91.9,74,0,5.97
comodoro rivadavia,-46.98307653447841,-68.00656731497853,3860443,1505275200,AR,55.4,47,0,21.92
progreso,24.00479919171508,-91.0239959585754,3521108,1505274540,MX,77,94,90,2.39
umzimvubu,-41.98636019196767,37.00959838343016,988356,1505278691,ZA,73.18,18,0,7.43
paita,-7.008588027279616,-85.04218236928517,3694112,1505278691,PE,62.73,90,36,7.31
sambava,-13.013387218994696,52.02980550644102,1056899,1505278691,MG,73.71,100,92,19.73
frontera,18.993180095983835,-93.02096489012376,3527545,1505274120,MX,75.2,100,40,12.8
usinsk,68.02020712301086,57.0204597120485,863061,1505278692,RU,40.41,88,76,3.4
purepero,19.98257135640313,-101.97423591816116,3991253,1505278692,MX,49.15,90,8,2.73
sao jose da coroa grande,-12.010356150543066,-29.02147006819904,3388456,1505278692,BR,73.08,94,92,12.01
kushima,30.013892397069966,131.96362717858045,1895695,1505275200,JP,81.54,78,75,5.82
norrtalje,59.977772164688055,18.958575397827733,2688250,1505276400,SE,50.95,100,75,8.05
jacareacanga,-5.998989643849457,-58.02778479413993,3397763,1505278693,BR,74.8,95,0,2.06
auki,-7.009850972467795,164.0255114928012,2109701,1505278693,SB,82.62,94,48,8.99
alice springs,-25.980045466026773,135.98029805506442,2077895,1505277120,AU,77,25,0,17.22
pelym,62.02197524627431,61.97221520586007,1495385,1505278693,RU,46.08,58,36,3.51
bur gabo,-4.996968931548371,47.01566052033342,6295613,1505276400,FI,55.4,100,75,5.82
agadez,16.995453397322557,9.997474109623642,2448083,1505278694,NE,78.48,17,0,13.8
asyut,22.992674917908563,25.997979287698914,359783,1505275200,EG,75.2,60,0,16.11
graneros,-34.02197524627431,-70.99545339732255,3888749,1505278694,CL,37.45,90,56,1.39
zagreb,45.978529931800956,16.006819904016165,3186886,1505277000,HR,50,93,20,5.82
nanchong,31.021722657236676,105.98888608234402,1800146,1505278694,CN,85.69,63,44,2.95
tortoli,39.013387218994694,10.97549886334933,2522890,1505274900,IT,73.4,53,0,13.87
ayr,-17.97852993180096,147.95983834301592,2656708,1505276400,GB,49.12,93,92,4.7
charters towers,-22.02222783531195,145.97145743874717,2171722,1505278695,AU,81,51,0,10.78
faya,16.98560242485476,19.986107602930034,1012080,1505278695,ZA,80.01,18,0,8.66
broken hill,-30.983581712553676,142.9901490275322,2173911,1505278695,AU,62.91,34,92,19.17
rantepao,-3.0209648901237687,120.95453397322557,1629974,1505278696,ID,70.3,100,92,2.84
batagay-alyta,66.98913867138167,129.96286941146755,2027042,1505278696,RU,42.21,79,8,4.18
marsh harbour,29.004294013639807,-75.0282899722152,3571913,1505278598,BS,83.52,100,0,5.3
mangrol,19.014650164182875,67.99242232887093,1263752,1505278696,IN,87.66,83,48,3.96
pirsagi,41.016670876483964,49.97474109623642,586736,1505277000,AZ,78.8,65,0,8.05
santa maria,18.998484465774187,-22.96842637029553,3450083,1505278689,BR,56.8,99,88,11.68
vila velha,-22.981308411214954,-30.00479919171508,3445026,1505275200,BR,68,94,20,4.7
guerrero negro,15.981561000252588,-131.99242232887093,4021858,1505278697,MX,68.76,98,36,7.65
sarande,39.994190452134376,19.95705986360192,363243,1505276400,AL,66.2,93,20,10.45
metro,-4.986360191967669,104.98585501389239,1635283,1505278697,ID,88.47,62,68,8.21
guaraniacu,-24.979035109876232,-53.02374336953776,3461892,1505275200,BR,75.2,69,0,6.93
bure,10.990906794645113,35.96110128820409,341397,1505278698,ET,60.48,97,32,3.62
dong hoi,16.986612781005306,107.02349078050013,1582886,1505278698,VN,86.22,97,8,8.77
ekhabi,53.99469563020965,148.02904773932812,2122614,1505278698,RU,58.06,80,88,7.2
labuhan,-19.000252589037636,94.03233139681738,8079926,1505278698,ID,80.65,100,0,6.31
bonfim,1.0181864107097751,-59.032331396817376,3405215,1505278698,BR,74.07,87,12,2.84
qinhuangdao,39.99318009598383,120.03233139681738,1797595,1505278699,CN,79.11,67,56,7.65
high point,36.01793382167214,-79.96261682242991,4471025,1505276640,US,66.69,94,90,5.82
mabaruma,9.021217479161404,-57.971710027784795,3377301,1505278699,GY,81.19,89,12,8.1
verkhnyaya sinyachikha,57.99115938368275,62.039151300833545,1487272,1505278699,RU,47.44,70,8,3.96
haines junction,60.02172265723667,-139.99595857539782,5969025,1505278699,CA,29.8,91,0,2.17
turtas,58.992169739833294,69.04117201313463,1540475,1505278699,RU,48.25,63,8,5.86
bosaso,10.994695630209648,47.98433947966658,64013,1505275200,SO,86,74,40,3.85
jieshi,20.97852993180096,116.03005809547865,1805857,1505278700,CN,86.22,85,44,18.72
viedma,-41.01717605455923,-61.02652184895175,3832899,1505278544,AR,59.05,35,0,18.61
tommot,56.99924223288709,127.98812831523112,2015179,1505278700,RU,59.31,66,8,3.51
gigmoto,18.002778479413994,130.98231876736548,1712961,1505278700,PH,85.41,97,76,17.27
raudeberg,66.00202071230109,1.0361202323819145,3146487,1505276400,NO,48.97,87,75,10.29
sorland,67.97903510987624,10.033594342005557,3137469,1505274600,NO,55.4,71,0,4.7
gbadolite,3.994190452134377,20.96413235665572,216404,1505278701,CD,73.44,99,76,2.62
sorong,-2.993685274059106,131.02727961606467,1626542,1505278701,ID,80.29,100,48,8.32
zeya,55.01566052033342,128.97171002778478,2012593,1505278701,RU,59.5,59,0,4.97
sistranda,69.01212427380652,7.033594342005557,3139597,1505276400,NO,51.8,93,75,16.11
chagda,56.0141449861076,130.038140944683,570086,1505278702,RU,65.25,90,48,7.99
barcelos,-0.984844657741854,-62.98156100025259,2742416,1505277000,PT,56.97,100,0,2.24
yanchukan,57.01439757514524,113.04344531447335,1786336,1505278702,CN,73.9,61,0,11.23
lappeenranta,61.01086132861834,27.998484465774187,648901,1505276400,FI,53.6,100,90,1.12
tshela,-4.9926749179085625,13.000757767112907,2311127,1505278702,CD,68.5,92,80,3.85
maralal,2.016418287446325,37.03359434200556,187725,1505278703,KE,65.8,90,0,3.62
dunedin,-53.002525890376354,178.01086132861835,2191562,1505278496,NZ,50.22,91,88,5.97
sioux lookout,52.01010356150543,-89.98989643849457,6148373,1505275200,CA,69.08,72,5,2.24
chitrakonda,18.01919676686032,81.98383430159132,1274055,1505278703,IN,85.6,64,24,3.4
caribou,46.9823187673655,-68.00909320535489,4960140,1505274960,US,54.88,87,1,3.36
tuatapere,-51.98762313715585,159.03207880777975,2180815,1505278704,NZ,50.05,100,92,9.66
kjollefjord,71.97928769891386,26.978024753725688,779261,1505274600,NO,51.19,87,20,8.05
orsha,53.99115938368275,30.02626925991412,624079,1505275200,BY,60.8,93,90,2.24
hermon,45.000252589037636,-68.96059611012882,4966992,1505274960,US,63.25,63,1,6.93
xingyi,25.00656731497853,104.96640565799444,1788457,1505278704,CN,81.36,66,36,3.18
hami,42.012629451881786,92.03233139681738,1529484,1505278704,CN,74.35,55,32,4.74
salmo,48.979287698913865,-116.97398332912351,6139413,1505275200,CA,71.6,43,90,5.82
ouesso,0.9893912604192978,16.02323819146249,2255564,1505278705,CG,71.01,97,92,3.62
maunabo,15.004041424602173,-64.96766860318262,4566208,1505277180,PR,83.48,83,75,8.05
lourdes,42.98105582217732,0.01035615054306643,2997395,1505277000,FR,55.54,87,0,8.05
bowen,-18.01136650669361,150.9681737812579,2174444,1505275200,AU,82.4,42,0,6.93
lubumbashi,-10.981055822177318,27.956049507451375,922704,1505278706,CD,64.26,45,0,10.22
ulladulla,-39.98787572619349,156.9780247537257,2145554,1505277000,AU,80.6,28,0,24.16
flinders,-34.977772164688055,130.00454660267744,6255012,1505277000,AU,80.6,28,0,24.16
belmonte,-16.006062136903257,-34.01616569840869,3470137,1505275200,BR,73.4,78,40,9.17
chalmette,28.986612781005306,-89.02601667087649,4319518,1505277300,US,67.62,82,1,3.74
port macquarie,-31.998484465774187,157.9732255620106,2152659,1505275200,AU,91.4,13,0,11.41
maniitsoq,62.99848446577418,-55.02197524627431,3421982,1505278707,GL,37.26,98,92,9.44
hambantota,0.9830765344784036,84.99166456175801,1244926,1505278707,LK,75.6,100,92,6.42
tecoanapa,8.979792876989139,-101.01465016418287,3516171,1505278707,MX,71.46,100,92,2.73
kazerun,29.99696893154837,52.01389239706997,128321,1505278707,IR,95.5,19,0,2.95
kimberley,50.00202071230109,-116.01363980803234,990930,1505275200,ZA,66.2,15,0,17.22
chara,56.01894417782268,117.0007577671129,2025630,1505278708,RU,50.13,61,0,2.39
san ramon,-13.002273301338722,-64.95807021975246,5392593,1505277300,US,67.39,82,1,5.82
minervino murge,41.011113917655976,15.986612781005304,3173404,1505276400,IT,64.17,68,0,4.7
amilly,48.00151553422582,3.0126294518817884,3037846,1505278708,FR,61.56,94,92,22.3
mahanoro,-20.00959838343016,49.96059611012882,1062553,1505278708,MG,69.21,89,44,1.83
shieli,42.992169739833294,65.9929275069462,1524801,1505278709,KZ,66.43,32,0,12.46
paradwip,15.990654205607477,89.01591310937106,1260393,1505278709,IN,85.06,89,80,12.24
sangar,65.00909320535489,129.03157362970447,2017215,1505278709,RU,53.37,63,32,3.4
parabel,59.01035615054307,82.00555695882798,1495586,1505278709,RU,46.62,75,12,10.11
maxixe,-22.00075776711291,34.0310684516292,1039536,1505278709,MZ,73.26,92,0,6.2
tandlianwala,31.001515534225813,72.9547865622632,1163968,1505278710,PK,92.61,79,20,5.53
berlevag,73.9893912604193,30.028289972215205,780687,1505274600,NO,48.2,87,20,8.05
kui buri,12.00959838343016,99.96413235665572,1152562,1505275200,TH,91.4,63,20,5.82
henties bay,-24.01187168476888,7.95882798686537,3356832,1505278710,NA,56.8,98,92,5.19
arman,55.99040161656984,147.9739833291235,2127060,1505275200,RU,59,30,20,11.18
bulolo,-7.019954533973226,145.98560242485476,2098869,1505278711,PG,73.81,70,32,1.72
vardo,77.99444304117202,35.99696893154837,777019,1505274600,NO,44.6,100,75,13.87
vilyuysk,64.98282394544077,121.97145743874715,2013392,1505278711,RU,52.11,76,76,3.62
bilibino,65.98408689062894,164.04395049254862,2126682,1505278711,RU,33.12,75,88,5.86
neiafu,-17.98509724677949,-177.9878757261935,4032420,1505277900,TO,77,88,75,5.82
palmer,54.01515534225815,-144.00050517807526,4946620,1505275080,US,58.57,93,1,2.28
sao joao da barra,-22.99115938368275,-39.9795402879515,3448903,1505278711,BR,72.36,97,0,15.7
ikom,5.993180095983834,8.960090932053548,2338242,1505278712,NG,69.75,98,92,4.63
urucara,-1.9840868906289466,-57.974488507198785,3385670,1505278712,BR,81.36,71,0,4.41
garmsar,34.98433947966658,52.03207880777974,32723,1505278712,IR,79.93,23,0,3.18
predivinsk,56.99115938368275,94.03258398585501,1494237,1505278712,RU,54.81,99,80,2.62
kousseri,13.000757767112907,14.005556958827986,2229798,1505275200,CM,75.2,88,0,5.82
montrose,37.9964637534731,-107.95554432937611,5431710,1505277300,US,67.12,42,1,5.82
kaniama,-6.984339479666582,24.96236423339227,214389,1505278713,CD,68.31,94,32,3.4
solnechnyy,63.00303106845163,138.97297297297297,2016307,1505278713,RU,54.27,99,92,3.29
pandan niog,5.9939378630967415,120.01237686284415,1695506,1505278713,PH,82.45,100,56,14.36
thetford mines,46.01515534225815,-71.03612023238192,6943827,1505278714,CA,54.27,89,0,3.06
da nang,16.998737054811823,109.040919424097,1583992,1505277000,VN,92.17,63,20,14.99
launceston,-40.99318009598383,149.03788835564538,2160517,1505277000,AU,53.6,66,40,16.11
puerto del rosario,26.985855013892397,-12.973225562010608,2512186,1505277000,ES,68,82,0,1.12
vestmanna,67.00479919171508,-7.9739833291235165,2610343,1505276400,FO,48.2,93,80,8.05
cullman,34.01389239706997,-86.98282394544077,4057835,1505277300,US,59.94,100,20,6.76
fortuna,34.99242232887093,-136.98762313715585,5563839,1505277300,US,55.4,100,90,4.7
manikganj,23.986612781005306,89.97044708259662,1348441,1505277000,BD,87.8,74,75,5.82
ust-maya,60.020712301086135,135.02349078050014,2013918,1505278715,RU,55.26,73,44,4.63
tawau,4.0,118.00732508209144,1734199,1505275200,MY,87.8,66,75,6.93
beauceville,46.021470068199044,-70.97221520586007,6295855,1505278716,CA,55.35,92,0,3.4
souillac,-62.97751957565042,77.01540793129578,933995,1505278800,MU,77,57,40,14.99
colac,-39.978529931800956,143.99520080828492,2171069,1505278716,AU,45.55,100,92,8.43
wanaka,-44.993685274059104,169.01313462995705,2184707,1505278513,NZ,46.54,76,36,3.4
tierralta,8.012882040919424,-76.01010356150543,3667158,1505278716,CO,76.69,90,44,8.43
omboue,-2.017428643596868,8.02626925991412,2396853,1505278716,GA,75.69,100,76,9.55
godinesti,45.00328365748926,23.025006314725943,677003,1505278717,RO,58.06,83,0,2.84
malakal,9.001262945188179,31.04420308158626,370737,1505278717,SS,85.23,66,0,4.18
verkhoturye,59.007830260166706,61.012629451881786,1487219,1505278717,RU,47.16,70,12,3.62
nhamunda,-1.9904016165698408,-57.00959838343016,3393929,1505278717,BR,79.66,76,12,4.52
tatawin,32.989391260419296,10.012882040919424,649549,1505276400,FI,55.4,100,75,5.82
altay,47.007830260166706,91.02248042434958,1529651,1505278718,CN,41.67,62,0,3.18
dubna,54.01212427380651,36.962111644354636,564719,1505278718,RU,64.98,80,68,12.68
opuwo,-20.002778479413994,8.969436726446073,3354077,1505278718,NA,50.31,84,12,2.95
rio claro,9.987117959080576,-61.03586764334428,3451234,1505278718,BR,61.75,54,0,3.74
stokmarknes,69.01515534225814,15.008588027279616,3136690,1505274600,NO,53.74,87,75,3.36
snasa,62.99722152058601,13.013387218994696,3138076,1505276400,NO,51.8,87,75,6.93
kaeo,-34.01086132861834,173.964637534731,2189343,1505278719,NZ,56.97,83,88,14.92
erenhot,42.98080323313968,109.98433947966659,2037485,1505278719,CN,83.61,28,68,7.09
harper,-1.997979287698914,-10.003788835564537,2276492,1505275200,LR,75.2,88,90,6.93
bairiki,1.0156605203334175,165.97979287698914,624784,1505278719,BY,61.47,100,80,7.43
calmar,53.011871684768884,-113.99823187673655,5913601,1505275200,CA,48.2,87,75,4.52
coahuayana,4.002273301338722,-110.97777216468805,4013679,1505278720,MX,81.1,100,12,2.28
laizhou,37.01641828744633,119.9724677948977,1804578,1505278720,CN,84.87,58,24,4.18
bud,65.01010356150543,5.956807274564284,4255151,1505277300,US,64.4,72,90,11.41
ardesen,41.01363980803233,41.00681990401617,751949,1505277000,TR,71.6,49,0,25.28
sudak,44.00959838343016,34.97272038393534,692315,1505278721,UA,76.95,65,0,4.74
zheleznodorozhnyy,63.989391260419296,51.00151553422582,463355,1505275200,RU,57.65,87,0,8.95
carauari,-3.988128315231119,-66.0035362465269,3664659,1505278721,BR,76.5,82,48,6.42
hofn,59.99318009598383,-14.008082849204344,2630299,1505278721,IS,46.9,100,32,15.82
rawson,-47.01515534225815,-61.98459206870422,3839307,1505278721,AR,49.77,80,12,12.01
kazalinsk,47.994190452134376,62.98711795908058,1516789,1505278722,KZ,64.71,36,0,4.41
birjand,31.977266986612783,60.036625410457184,140463,1505275200,IR,69.8,22,0,6.93
ejura,7.9780247537256885,-1.0174286435968678,2301217,1505278722,GH,72.72,95,88,3.4
jurado,7.016165698408689,-77.96716342510734,3680090,1505278722,CO,77.41,100,88,7.54
tigil,59.018186410709774,157.96968931548372,2120612,1505278722,RU,49.15,52,88,11.34
yanan,37.0176812326345,108.99267491790856,658225,1505276400,FI,55.4,100,75,5.82
santa maria del oro,26.006062136903257,-105.97802475372569,3984078,1505278723,MX,50.95,67,0,2.17
rawah,34.9795402879515,41.98509724677949,92004,1505278723,IQ,87.4,30,0,10.78
ciudad real,38.981308411214954,-4.040919424096995,2519402,1505278723,ES,51.31,72,0,3.62
sita road,27.002778479413994,68.01465016418287,1164716,1505278723,PK,98.56,52,0,4.07
bata,1.9868653700429402,10.006314725940895,2310046,1505275200,GQ,75.2,100,75,5.82
bossangoa,6.00479919171508,17.027279616064664,2388036,1505278724,CF,69.66,97,68,9.78
buraydah,28.993180095983835,43.02576408183885,107304,1505275200,SA,82.4,26,0,4.63
rocha,-42.99090679464511,-45.97322556201061,3440777,1505278724,UY,41.05,91,0,3.4
shimoda,24.020459712048496,140.98130841121494,1852357,1505275200,JP,82.4,69,40,8.05
galveston,26.004294013639807,-93.03990906794645,4692883,1505274780,US,76.44,61,1,11.41
shunyi,40.98509724677949,116.96943672644608,2034754,1505277000,CN,82.4,58,36,4.47
jieshou,33.00404142460217,115.01995453397322,1805844,1505278725,CN,83.44,68,8,9.44
elko,39.011871684768884,-115.95630209648901,5703670,1505274960,US,71.6,37,1,2.51
ankang,33.01717605455923,109.02727961606466,1789065,1505278725,CN,73.35,69,48,3.29
cabra,14.022227835311947,114.96211164435464,2520645,1505277000,ES,58.93,41,8,2.39
kadykchan,62.020712301086135,145.96286941146755,2123100,1505278726,RU,45.36,56,0,5.86
novopokrovka,45.99444304117201,134.96160646627936,699328,1505277000,UA,69.8,73,0,8.95
camapua,-18.99595857539783,-53.98156100025259,3468020,1505278726,BR,76.95,33,32,10.67
les escoumins,48.993685274059104,-69.98534983581713,6944110,1505278726,CA,50.13,87,0,3.96
florianopolis,-27.98812831523112,-47.997474109623646,3463237,1505275200,BR,68,88,75,1.16
spornoye,63.0176812326345,151.03788835564538,628397,1505278726,BY,59.5,100,92,23.2
am timan,10.981561000252588,21.026521848951756,245338,1505278727,TD,76.41,79,44,11.68
balkhash,45.97878252083859,76.01363980803234,1525798,1505278727,KZ,51.12,100,24,5.08
fresnillo,22.98737054811821,-103.00783026016671,4006163,1505274120,MX,57.2,54,5,5.3
mitzic,0.9904016165698408,12.005051780752716,2398283,1505278667,GA,70.93,96,92,2.06
poronaysk,49.9795402879515,143.96160646627936,2121909,1505278727,RU,56.16,100,80,18.39
luwuk,-1.0212174791614044,124.97625663046223,1637001,1505278728,ID,80.29,88,92,4.74
